route_id,shape_id,stop_id,stop_name,stop_sequence,stop_lon,stop_lat,dist
016,shape016-I,21,"AVENIDA CEL CARVALHO, 830",1,-38.590027,-3.709188,0
016,shape016-I,19,"AVENIDA CEL CARVALHO, 597",2,-38.590279,-3.708209,111.784494092937
016,shape016-I,17,"AVENIDA CEL CARVALHO, 205",3,-38.59076,-3.706411,317.61159307353
016,shape016-I,12,"AVENIDA CEL CARVALHO, 163",4,-38.591445,-3.703736,622.92655521783
016,shape016-I,10,"AVENIDA CEL CARVALHO, 1180",5,-38.590602,-3.702286,833.635611046549
016,shape016-I,9,"AVENIDA CEL CARVALHO, 253",6,-38.589806,-3.701834,935.752720920881
016,shape016-I,4,"AVENIDA CEL CARVALHO, SN",7,-38.588309,-3.700127,1187.65789412322
016,shape016-I,5507,"AVENIDA CASTELO BRANCO, SN",8,-38.586995,-3.70042,1358.39285571427
016,shape016-I,26,"AVENIDA PRS CASTELO BRANCO, SN",9,-38.585682,-3.701021,1518.6698035714
016,shape016-I,24,"AVENIDA PRS CASTELO BRANCO, 5943",10,-38.584185,-3.701725,1702.50482778795
016,shape016-I,30,"AVENIDA PRESIDENTE CASTELO BRANCO, 5818",11,-38.582352,-3.702575,1926.70225794306
016,shape016-I,27,"AVENIDA PRS CASTELO BRANCO, 5471",12,-38.579891,-3.703788,2231.33278093033
016,shape016-I,44,"AVENIDA PRS CASTELO BRANCO, 5187",13,-38.577432,-3.704866,2529.45170903019
016,shape016-I,66,"AVENIDA PRS CASTELO BRANCO, 4821",14,-38.575068,-3.705975,2819.32121164403
016,shape016-I,64,"AVENIDA PRS CASTELO BRANCO, 4565",15,-38.573181,-3.706629,3041.02405804666
016,shape016-I,68,"AVENIDA FRANCISCO CALACA, 4246",16,-38.571103,-3.7074,3287.03767470241
016,shape016-I,76,"AVENIDA PRS CASTELO BRANCO, 3911",17,-38.567992,-3.708596,3657.52317731
016,shape016-I,75,"AVENIDA PEDRO AMERICO, 3701",18,-38.566088,-3.709238,3880.58929875146
016,shape016-I,246,"AVENIDA PRS CASTELO BRANCO, 3567",19,-38.563734,-3.70999,4154.90353715985
016,shape016-I,244,"AVENIDA PRS CASTELO BRANCO, 3443",20,-38.561771,-3.71042,4378.09123727474
016,shape016-I,253,"AVENIDA PRS CASTELO BRANCO, 3257",21,-38.560445,-3.71077,4530.42065759148
016,shape016-I,250,"AVENIDA PRS CASTELO BRANCO, 3137",22,-38.558272,-3.711395,4781.42985991862
016,shape016-I,270,"AVENIDA PRS CASTELO BRANCO, 2973",23,-38.555216,-3.711973,5127.33124922054
016,shape016-I,272,"AVENIDA PRS CASTELO BRANCO, 2813",24,-38.55302,-3.712453,5377.00239015855
016,shape016-I,278,"AVENIDA PRS CASTELO BRANCO, 2443",25,-38.549774,-3.713406,5752.53543706278
016,shape016-I,706,"AVENIDA PRS CASTELO BRANCO, 2031",26,-38.545773,-3.714892,6227.64190717501
016,shape016-I,707,"AVENIDA PRS CASTELO BRANCO, 595",27,-38.540313,-3.716961,6904.2621810828
016,shape016-I,3972,"AVENIDA PRS CASTELO BRANCO, 455",28,-38.53875,-3.717811,7103.08045168511
016,shape016-I,712,"AVENIDA PRS CASTELO BRANCO, 249",29,-38.537379,-3.718171,7260.44085074395
016,shape016-I,4412,"AVENIDA PRESIDENTE CASTELO BRANCO, 709",30,-38.535212,-3.71826,7501.63050611881
016,shape016-I,999,"AVENIDA PRS CASTELO BRANCO, NI",31,-38.528643,-3.720936,8289.90207555698
016,shape016-I,1211,"AVENIDA MON TABOSA, 84",32,-38.522164,-3.723043,9048.04830046705
016,shape016-I,4411,"RUA MON TABOSA, SN",33,-38.520786,-3.723321,9204.12422200378
016,shape016-I,1218,"RUA ALM JACEGUAI, SN",34,-38.519336,-3.721442,9587.04589586712
016,shape016-I,1220,"AVENIDA ALM BARROSO, 668",35,-38.517285,-3.720477,9896.41253803198
016,shape016-I,1232,"AVENIDA HIS RAIMUNDO GIRAO, 363",36,-38.513173,-3.720523,10356.1269605289
016,shape016-I,6323,"AVENIDA MOSENHOR TABOSA, 1165-D",37,-38.508599,-3.724258,11267.4777981795
016,shape016-I,1244,"AVENIDA MON TABOSA, 176",38,-38.505792,-3.724435,11579.8028916763
016,shape016-I,6324,"AVENIDA MONSENHOR TABOSA, 1600",39,-38.504556,-3.724513,11717.3252535421
016,shape016-I,1246,"AVENIDA ABOLICAO, 2026",40,-38.500912,-3.725644,12141.494394951
016,shape016-I,1248,"AVENIDA ABOLICAO, 2456",41,-38.497018,-3.726891,12595.3531769514
016,shape016-I,1253,"AVENIDA ABOLICAO, 2727",42,-38.494787,-3.727269,12851.6489642589
016,shape016-I,1251,"AVENIDA ABOLICAO, 3000",43,-38.4928,-3.72696,13074.9360398277
016,shape016-I,1256,"AVENIDA ABOLICAO, 3273",44,-38.489988,-3.726532,13390.7771721703
016,shape016-I,1260,"AVENIDA ABOLICAO, 3555",45,-38.487029,-3.726058,13723.6341534731
016,shape016-I,1265,"AVENIDA ABOLICAO, SN",46,-38.484131,-3.725369,14054.3337409929
016,shape016-I,2644,"AVENIDA ABOLICAO, 4036",47,-38.481016,-3.723578,14455.2903501308
016,shape016-I,2648,"RUA SANTANA, 310",48,-38.480588,-3.724661,14714.4708087842
016,shape016-I,1848,"AVENIDA ALM HENRIQUE SABOIA, SN",49,-38.480475,-3.727799,15061.666821032
016,shape016-I,5150,"AVENIDA ALM HENRIQUE SABOIA, 856",50,-38.481263,-3.729849,15310.1092620036
016,shape016-I,1824,"AVENIDA ALM HENRIQUE SABOIA, 2364",51,-38.482288,-3.73139,15515.045110844
016,shape016-I,1844,"AVENIDA ENG ALBERTO SA, 100",52,-38.481438,-3.733116,15829.4265101064
016,shape016-I,1865,"AVENIDA ENG SANTANA JUNIOR, 639",53,-38.480862,-3.733658,15947.2606591557
016,shape016-I,5467,"AVENIDA ENG SANTANA JUNIOR, 918",54,-38.482184,-3.735714,16217.8651333712
016,shape016-I,2185,"AVENIDA ENG SANTANA JUNIOR, 1185",55,-38.483407,-3.737655,16471.8001524583
016,shape016-I,6079,"PRAÃ‡A TERMINAL PAPICU, SN",56,-38.484761,-3.738568,16671.6941344033
