route_id,shape_id,stop_id,stop_name,stop_sequence,stop_lon,stop_lat,dist
035,shape035-V,6108,"PRAÇA TERMINAL ANTONIO BEZERRA, SN",1,-38.584186,-3.737485,1.97235324927973e-09
035,shape035-V,1494,"RUA CEL CARVALHO, 3568",2,-38.584143,-3.73488,703.106612795644
035,shape035-V,4671,"AVENIDA CEL CARVALHO, SN",3,-38.584419,-3.732492,968.849116509567
035,shape035-V,1478,"AVENIDA CEL CARVALHO, 342",4,-38.584621,-3.730763,1161.27992917563
035,shape035-V,1474,"AVENIDA CEL CARVALHO, 2889",5,-38.584979,-3.728366,1429.42792492098
035,shape035-V,804,"AVENIDA CEL CARVALHO, 2639",6,-38.585641,-3.725958,1705.56705093091
035,shape035-V,798,"AVENIDA CEL CARVALHO, 2417",7,-38.586321,-3.723427,1995.36854447611
035,shape035-V,791,"AVENIDA CEL CARVALHO, 2279",8,-38.586732,-3.721884,2171.92833299781
035,shape035-V,4785,"AVENIDA ABELARDO FERREIRA, 1925",9,-38.587451,-3.719201,2479.05872753158
035,shape035-V,149,"AVENIDA CEL CARVALHO, 1751",10,-38.587799,-3.717818,2636.74734673731
035,shape035-V,148,"AVENIDA CEL CARVALHO, 1303",11,-38.588691,-3.714249,3043.5500673914
035,shape035-V,139,"AVENIDA CEL CARVALHO, 1033 A",12,-38.589429,-3.711356,3373.71781933496
035,shape035-V,19,"AVENIDA CEL CARVALHO, 597",13,-38.590279,-3.708209,3734.27243329843
035,shape035-V,17,"AVENIDA CEL CARVALHO, 205",14,-38.59076,-3.706411,3940.09953227902
035,shape035-V,12,"AVENIDA CEL CARVALHO, 163",15,-38.591445,-3.703736,4245.41449442332
035,shape035-V,4244,"AVENIDA FRANCISCO SA, 7867",16,-38.5899,-3.704048,4464.46862262624
035,shape035-V,31,"AVENIDA FRANCISCO SA, 7785",17,-38.587929,-3.705231,4719.42983410437
035,shape035-V,35,"AVENIDA FRANCISCO SA, 7620",18,-38.586115,-3.706346,4955.58682887615
035,shape035-V,32,"AVENIDA FRANCISCO SA, 7326",19,-38.584548,-3.707274,5157.5814764998
035,shape035-V,38,"AVENIDA FRANCISCO SA, SN",20,-38.582884,-3.70826,5372.11048611687
035,shape035-V,36,"AVENIDA FRANCISCO SA, 6349",21,-38.580628,-3.709426,5655.07716847292
035,shape035-V,224,"AVENIDA FRANCISCO SA, 5991",22,-38.578834,-3.710036,5865.42541417666
035,shape035-V,222,"AVENIDA FRANCISCO SA, 5855",23,-38.576925,-3.710712,6090.21714308312
035,shape035-V,229,"AVENIDA FRANCISCO SA, 5652",24,-38.574684,-3.711497,6353.76642108993
035,shape035-V,227,"AVENIDA FRANCISCO SA, 5383",25,-38.57268,-3.712169,6588.38727299731
035,shape035-V,230,"AVENIDA FRANCISCO SA, 5045",26,-38.569423,-3.713289,6970.66908642837
035,shape035-V,261,"AVENIDA FRANCISCO SA, 4669",27,-38.5674,-3.713992,7208.37899379127
035,shape035-V,259,"AVENIDA FRANCISCO SA, 4487",28,-38.564654,-3.714944,7530.96594476509
035,shape035-V,263,"AVENIDA FRANCISCO SA, 4237",29,-38.562598,-3.715643,7771.99958208454
035,shape035-V,262,"AVENIDA FRANCISCO SA, 3990",30,-38.560783,-3.716253,7984.52876348789
035,shape035-V,266,"AVENIDA FRANCISCO SA, 3783",31,-38.558873,-3.716894,8208.15103238955
035,shape035-V,4247,"AVENIDA FRANCISCO SA, 3636",32,-38.556518,-3.717681,8483.75231269412
035,shape035-V,4249,"AVENIDA FRANCISCO SA, SN",33,-38.555099,-3.718161,8650.02021854608
035,shape035-V,963,"AVENIDA FRANCISCO SA, 2580",34,-38.548149,-3.72044,9461.8658724325
035,shape035-V,978,"AVENIDA FRANCISCO SA, 2164",35,-38.544925,-3.721481,9837.91861933716
035,shape035-V,4784,"RUA SÃO PAULO, 1941",36,-38.542548,-3.721098,10198.2998918455
035,shape035-V,982,"RUA SÃO PAULO, 742",37,-38.541731,-3.721365,10293.7035207688
035,shape035-V,986,"RUA SAO PAULO, 1460",38,-38.538621,-3.72237,10656.5063856164
035,shape035-V,4409,"RUA SAO PAULO, 1170",39,-38.536823,-3.72297,10866.9050562388
035,shape035-V,985,"RUA PDE MORORO, 521",40,-38.53618,-3.72126,11078.2081015993
035,shape035-V,993,"RUA CASTRO E SILVA, 950",41,-38.533664,-3.721771,11394.7915152101
035,shape035-V,1025,"RUA CASTRO E SILVA, 409",42,-38.52905,-3.723312,11934.7611306956
035,shape035-V,1030,"RUA CASTRO E SILVA, 162",43,-38.527042,-3.723972,12169.3775890813
035,shape035-V,1032,"RUA CASTRO E SILVA, 38",44,-38.525696,-3.724408,12326.4226468355
035,shape035-V,1033,"RUA SENA MADUREIRA, 761",45,-38.525604,-3.725933,12563.6519989659
035,shape035-V,1741,"AVENIDA POCINHO, 55",46,-38.522726,-3.728306,13170.1259609338
035,shape035-V,4408,"AVENIDA SANTOS DUMONT, 444",47,-38.519341,-3.729412,13565.4865246304
035,shape035-V,1750,"AVENIDA SANTOS DUMONT, 1028",48,-38.514478,-3.730977,14134.3853497807
035,shape035-V,1769,"AVENIDA SANTOS DUMONT, 1400",49,-38.511142,-3.732063,14523.7959855396
035,shape035-V,1780,"AVENIDA SANTOS DUMONT, 1665",50,-38.508982,-3.732771,14776.0982999868
035,shape035-V,1781,"AVENIDA SANTOS DUMONT, 1890",51,-38.507134,-3.733379,14992.0348015144
035,shape035-V,6204,"AVENIDA SANTOS DUMONT, 2500",52,-38.501979,-3.735096,15595.1549127722
035,shape035-V,2152,"AVENIDA SANTOS DUMONT, SN",53,-38.496667,-3.736819,16215.0217861536
035,shape035-V,6205,"AVENIDA SANTOS DUMONT, SN",54,-38.493094,-3.737981,16632.0664485585
035,shape035-V,2179,"AVENIDA SANTOS DUMONT, SN",55,-38.489711,-3.739069,17026.5147112159
035,shape035-V,6079,"PRAÇA TERMINAL PAPICU, SN",56,-38.484761,-3.738568,18491.1594296618
035,shape035-V,2197,"AVENIDA ENG SANTANA JUNIOR, 1901",58,-38.486373,-3.742359,19252.6447703922
035,shape035-V,4293,"AVENIDA ENG SANTANA JUNIOR, SN",59,-38.489814,-3.74789,20003.1885503491
035,shape035-V,6162,"AVENIDA ENG SANTANA JUNIOR, SN",60,-38.490789,-3.752242,20496.3221543087
035,shape035-V,3300,"AVENIDA WASHINGTON SOARES, SN",61,-38.488818,-3.757659,21312.6723296096
035,shape035-V,3301,"AVENIDA WASHINGTON SOARES, SN",62,-38.48669,-3.758195,21556.2916112813
035,shape035-V,6208,"AVENIDA WASHIGTON SOARES, 700",63,-38.484502,-3.758727,21806.2700550105
035,shape035-V,3304,"AVENIDA WASHINGTON SOARES, 909",64,-38.482985,-3.762879,22329.1094098006
035,shape035-V,3329,"AVENIDA WASHINGTON SOARES, SN",65,-38.482435,-3.76856,22960.3481342892
035,shape035-V,4188,"AVENIDA WASHINGTON SOARES, SN",66,-38.482082,-3.773125,23466.5835999051
035,shape035-V,3244,"AVENIDA WASHINGTON SOARES, SN",67,-38.481778,-3.775036,23680.592138076
035,shape035-V,1083,"AVENIDA WASHINGTON SOARES, SN",68,-38.481152,-3.782611,24520.9060829974
035,shape035-V,1082,"AVENIDA WASHINGTON SOARES, SN",69,-38.480994,-3.785908,24885.9709080045
035,shape035-V,1079,"AVENIDA WASHINGTON SOARES, 3840",70,-38.480611,-3.789288,25262.1321408403
035,shape035-V,4599,"AVENIDA OLIVEIRA PAIVA, 2989",71,-38.4813,-3.795792,26116.998877469
035,shape035-V,639,"AVENIDA OLIVEIRA PAIVA, 2579",72,-38.483014,-3.79593,26307.9270209688
035,shape035-V,641,"AVENIDA OLIVEIRA PAIVA, 2123",73,-38.487867,-3.796169,26848.5922851981
035,shape035-V,629,"AVENIDA OLIVEIRA PAIVA, 1735",74,-38.490993,-3.79581,27197.9555142553
035,shape035-V,4151,"AVENIDA OLIVEIRA PAIVA, 1393",75,-38.494002,-3.795481,27534.0399369875
035,shape035-V,2611,"AVENIDA OLIVEIRA PAIVA, 1205 E",76,-38.495434,-3.795368,27693.7078417118
035,shape035-V,2618,"AVENIDA OLIVEIRA PAIVA, SN",77,-38.497755,-3.796101,27966.2534570422
035,shape035-V,2626,"AVENIDA OLIVEIRA PAIVA, 540",78,-38.50048,-3.797352,28298.9322464972
035,shape035-V,2966,"AVENIDA OLIVEIRA PAIVA, 233",79,-38.503228,-3.798603,28633.9331175558
035,shape035-V,3525,"AVENIDA PAULINO ROCHA, 47",80,-38.507699,-3.802277,29322.1432430069
035,shape035-V,3531,"AVENIDA PAULINO ROCHA, 1001",81,-38.508336,-3.806504,29794.713107648
035,shape035-V,3420,"AVENIDA PAULINO ROCHA, 1330",82,-38.508722,-3.808896,30062.6021033664
035,shape035-V,3418,"AVENIDA PAULINO ROCHA, 2000",83,-38.511114,-3.811605,30481.645757706
035,shape035-V,4175,"AVENIDA PAULINO ROCHA, 1810",84,-38.513424,-3.811578,30742.5557101429
035,shape035-V,4004,"AVENIDA PAULINO ROCHA, 2025",85,-38.516432,-3.8108,31087.4566777479
035,shape035-V,5758,"AVENIDA PAULINO ROCHA, 2548",86,-38.518583,-3.810275,31333.2403119565
035,shape035-V,3405,"AVENIDA PAULINO ROCHA, 2801",87,-38.521407,-3.809565,31656.5343107555
035,shape035-V,3133,"AVENIDA DEDE BRASIL, 5900",88,-38.526834,-3.804996,32457.5639612273
035,shape035-V,3127,"AVENIDA DEDE BRASIL, 5699",89,-38.529022,-3.802485,32826.4465322665
035,shape035-V,4922,"AVENIDA DEDE BRASIL, 6448",90,-38.530141,-3.800787,33053.2637120136
035,shape035-V,499,"AVENIDA DEDE BRASIL, 4997",91,-38.531603,-3.79707,33495.0540615263
035,shape035-V,494,"AVENIDA DEDE BRASIL, 4741",92,-38.532871,-3.795193,33750.2330346262
035,shape035-V,4025,"AVENIDA DEDE BRASIL, 480",93,-38.534234,-3.793913,33957.4146824969
035,shape035-V,2605,"AVENIDA DEDE BRASIL, 4241",94,-38.537936,-3.791168,34474.5661639675
035,shape035-V,332,"AVENIDA DEDE BRASIL, 3770",95,-38.540554,-3.790261,34782.0710548599
035,shape035-V,337,"AVENIDA DEDE BRASIL, 3493",96,-38.541886,-3.789792,34938.7961652439
035,shape035-V,338,"AVENIDA DEDE BRASIL, 3133",97,-38.545204,-3.788637,35328.7100424646
035,shape035-V,301,"AVENIDA DEDE BRASIL, 2919",98,-38.547596,-3.787686,35614.7283765871
035,shape035-V,294,"AVENIDA AV. DEDÉ BRASIL, 2670",99,-38.549795,-3.786526,35890.6065327713
035,shape035-V,292,"AVENIDA AV. DEDÉ BRASIL, 2333",100,-38.551155,-3.78581,36061.1037332256
035,shape035-V,4503,"AVENIDA AV. DEDÉ BRASIL, 357",101,-38.554072,-3.783599,36474.3827335187
035,shape035-V,285,"AVENIDA DEDE BRASIL, 1151",102,-38.55597,-3.782017,36753.7084897571
035,shape035-V,1653,"AVENIDA DEDE BRASIL, 805",103,-38.55838,-3.780695,37058.6147847658
035,shape035-V,1654,"AVENIDA DEDE BRASIL, 565",104,-38.559999,-3.779819,37262.8296772599
035,shape035-V,1644,"AVENIDA CARLOS AMORA, 26",105,-38.564402,-3.774241,38229.723473252
035,shape035-V,2886,"RUA PROFESSOR GOMES BRASIL, 306",106,-38.568243,-3.772953,38759.7448260201
035,shape035-V,6339,"PRAÇA TERMINAL LAGOA, SN",107,-38.569883,-3.77181,39292.0866818905
035,shape035-V,2876,"AVENIDA SEN FERNANDES TAVORA, 106",109,-38.573453,-3.767265,40041.0635599803
035,shape035-V,2874,"AVENIDA SEN FERNANDES TAVORA, SN",110,-38.575136,-3.765972,40280.3215614503
035,shape035-V,5805,"AVENIDA SENADOR FERNANDES TAVORA, SN",111,-38.577306,-3.764778,40555.0546292525
035,shape035-V,2736,"AVENIDA GUARANI, 768",112,-38.579736,-3.763487,40860.303687826
035,shape035-V,4903,"AVENIDA SEN FERNANDES TAVORA, 1067",113,-38.582704,-3.7619,41233.6603742575
035,shape035-V,2727,"AVENIDA SEN FERNANDES TAVORA, 1255",114,-38.58404,-3.761187,41401.6470968289
035,shape035-V,2735,"RUA PRO HERIBALDO COSTA, SN",115,-38.583961,-3.760198,41545.6789892437
035,shape035-V,2717,"RUA PRO HERIBALDO COSTA, 681",116,-38.583173,-3.75871,41731.9843396615
035,shape035-V,2722,"RUA HERIBALDO COSTA, SN",117,-38.582097,-3.756684,41985.9011854894
035,shape035-V,2282,"RUA MATOS DOURADO, SN",118,-38.582794,-3.752764,42434.3463496406
035,shape035-V,2281,"RUA MATOS DOURADO, 300 A",119,-38.583845,-3.750779,42682.9187948636
035,shape035-V,2266,"RUA MATOS DOURADO, 1349",120,-38.584655,-3.748522,42951.417071774
035,shape035-V,4650,"RUA CEL MATOS DOURADO, 1328",121,-38.584799,-3.745987,43232.0892026004
035,shape035-V,1990,"RUA PEDRO MELO, 511",122,-38.584912,-3.743136,43547.4825359482
035,shape035-V,1988,"RUA MATOS DOURADO, 281",123,-38.585075,-3.741236,43758.2826609663
035,shape035-V,6108,"PRAÇA TERMINAL ANTONIO BEZERRA, SN",124,-38.584186,-3.737485,1.97235324927973e-09
