route_id,shape_id,stop_id,stop_name,stop_sequence,stop_lon,stop_lat,dist
374,shape374-I,6087,"AVENIDA MIGUEL ARAGAO, SN",1,-38.590142,-3.831064,0
374,shape374-I,886,"RUA JUVENCIO PORFIRIO SALES, 767",2,-38.58919,-3.827877,391.907102434284
374,shape374-I,620,"RUA SAO JOAO BATISTA, 530",3,-38.588431,-3.82634,581.75611245065
374,shape374-I,619,"RUA EDUARDO ARAUJO, 560",4,-38.588785,-3.825503,699.024701464657
374,shape374-I,617,"RUA COSME JERONIMO, 1277",5,-38.587535,-3.823645,1005.32084771793
374,shape374-I,616,"RUA COSME JERONIMO, 910",6,-38.586581,-3.822879,1140.9278167748
374,shape374-I,621,"RUA MARIA GOMES DE SA, 1565",7,-38.584666,-3.822601,1431.80495608584
374,shape374-I,623,"RUA MARIA GOMES DE SA, 1200",8,-38.58134,-3.826132,1972.28805818555
374,shape374-I,624,"RUA ALVARO CHAVES, 61",9,-38.580176,-3.825334,2222.30102418864
374,shape374-I,625,"RUA MAR DE ABRANTES, 433",10,-38.579212,-3.824804,2394.02703716392
374,shape374-I,626,"AVENIDA GODOFREDO MACIEL, 5700",11,-38.578884,-3.824771,2839.8039682234
374,shape374-I,649,"AVENIDA GODOFREDO MACIEL, 5696",12,-38.578577,-3.823823,2949.99807701051
374,shape374-I,645,"AVENIDA GODOFREDO MACIEL, SN",13,-38.575909,-3.818599,3614.16187658915
374,shape374-I,880,"AVENIDA GODOFREDO MACIEL, SN",14,-38.574468,-3.815893,3970.85793204444
374,shape374-I,873,"AVENIDA GODOFREDO MACIEL, 4372",15,-38.574841,-3.812301,4383.62788402345
374,shape374-I,876,"AVENIDA GODOFREDO MACIEL, 4140 A",16,-38.574424,-3.811082,4526.10831285101
374,shape374-I,5432,"AVENIDA GODOFREDO MACIEL, 3878",17,-38.573706,-3.808912,4778.87684221484
374,shape374-I,589,"AVENIDA GODOFREDO MACIEL, 3513",18,-38.57303,-3.806839,5020.00107755477
374,shape374-I,579,"AVENIDA GODOFREDO MACIEL, 957",19,-38.571755,-3.80275,5493.65838349027
374,shape374-I,5189,"AVENIDA GODOFREDO MACIEL, 2743",20,-38.570898,-3.79994,5818.51789690377
374,shape374-I,473,"AVENIDA GODOFREDO MACIEL, 2440",21,-38.570056,-3.797172,6138.45392830166
374,shape374-I,471,"AVENIDA GODOFREDO MACIEL, 2291",22,-38.569599,-3.7957,6308.89935008623
374,shape374-I,467,"AVENIDA GODOFREDO MACIEL, 1728",23,-38.568743,-3.793511,6570.02877413508
374,shape374-I,481,"AVENIDA GODOFREDO MACIEL, SN",24,-38.567423,-3.791776,6811.47926357747
374,shape374-I,201,"AVENIDA GODOFREDO MACIEL, 1184",25,-38.566615,-3.786106,7456.46097053042
374,shape374-I,198,"AVENIDA GODOFREDO MACIEL, 841",26,-38.565918,-3.783838,7718.83565352018
374,shape374-I,6143,"RUA ANTONIO BANDEIRA, 122",27,-38.564569,-3.783682,7919.13992663941
374,shape374-I,1656,"RUA CASIMIRO DE ABREU, 185",28,-38.561693,-3.780686,8413.92433006044
374,shape374-I,1657,"AVENIDA DEDE BRASIL, SN",29,-38.561646,-3.777758,8811.41063636543
374,shape374-I,1646,"RUA 7 DE SETEMBRO, SN",30,-38.562412,-3.773215,9500.18976921588
374,shape374-I,2901,"AVENIDA JOAO PESSOA, 7035",31,-38.56158,-3.771531,9710.14546931638
374,shape374-I,2899,"AVENIDA JOAO PESSOA, 6754",32,-38.560781,-3.76959,9942.31885809331
374,shape374-I,2896,"AVENIDA JOAO PESSOA, 6381",33,-38.559327,-3.766072,10363.4129250514
374,shape374-I,3874,"AVENIDA JOAO PESSOA, 6000",34,-38.558166,-3.763245,10701.4533164443
374,shape374-I,5401,"AVENIDA JOAO PESSOA, 5823",35,-38.557186,-3.761176,10955.3169007709
374,shape374-I,2815,"AVENIDA JOAO PESSOA, 5609",36,-38.555947,-3.759659,11172.3017236747
374,shape374-I,2800,"AVENIDA JOAO PESSOA, 5279",37,-38.554325,-3.75787,11439.8002035069
374,shape374-I,2805,"AVENIDA JOAO PESSOA, 5107",38,-38.553112,-3.756499,11642.5532775875
374,shape374-I,2807,"AVENIDA JOAO PESSOA, 4820",39,-38.551623,-3.754841,11889.651848112
374,shape374-I,2380,"AVENIDA JOAO PESSOA, 4633",40,-38.551092,-3.75423,11979.3149359192
374,shape374-I,2384,"AVENIDA JOAO PESSOA, 4395",41,-38.548805,-3.751696,12357.4396284604
374,shape374-I,2372,"AVENIDA JOAO PESSOA, 4115",42,-38.547236,-3.749949,12617.5342711708
374,shape374-I,2386,"AVENIDA JOAO PESSOA, 3907",43,-38.545852,-3.74842,12845.9807330136
374,shape374-I,2389,"AVENIDA JOAO PESSOA, 3729",44,-38.544743,-3.747177,13030.4884751176
374,shape374-I,2069,"AVENIDA DA UNIVERSIDADE, 3264",45,-38.541875,-3.74401,13503.8608130601
374,shape374-I,2063,"AVENIDA DA UNIVERSIDADE, SN",46,-38.538676,-3.740476,14031.8676911061
374,shape374-I,1717,"AVENIDA DA UNIVERSIDADE, 2068",47,-38.5345,-3.735906,14717.6046102993
374,shape374-I,1716,"RUA DOMINGOS OLIMPIO, 1250",48,-38.534588,-3.735376,14829.0221923575
374,shape374-I,1715,"AVENIDA TRISTAO GONCALVES, 1441",49,-38.535412,-3.734475,15021.0733262726
374,shape374-I,1691,"AVENIDA TRISTAO GONCALVES, 1153",50,-38.5346,-3.731735,15337.0848486036
374,shape374-I,5357,"RUA VINTE QUATRO DE MAIO, SN",51,-38.532794,-3.729342,15971.3983889937
