route_id,shape_id,stop_id,stop_name,stop_sequence,stop_lon,stop_lat,dist
670,shape670-V,3495,"PRAÇA CASTRO CARREIRO, SN",1,-38.530027,-3.722821,2.00088104438733
670,shape670-V,1013,"AVENIDA IMPERADOR, 270",2,-38.533477,-3.72369,727.915744703494
670,shape670-V,1010,"AVENIDA IMPERADOR, 550",3,-38.534206,-3.726137,1010.25767921521
670,shape670-V,1692,"AVENIDA IMPERADOR, 832",4,-38.534757,-3.727993,1224.35046813907
670,shape670-V,1690,"AVENIDA DUQ CAXIAS, 1033",5,-38.533547,-3.730656,2130.93577748572
670,shape670-V,1694,"AVENIDA DUQ CAXIAS, 802",6,-38.531638,-3.731278,2353.79960708756
670,shape670-V,1728,"AVENIDA DUQ CAXIAS, 425",7,-38.528441,-3.732292,2726.10758613115
670,shape670-V,1732,"AVENIDA DUQ CAXIAS, 153 A",8,-38.526063,-3.73307,3003.8212075569
670,shape670-V,1756,"AVENIDA VIS RIO BRANCO, 1635",9,-38.524297,-3.735056,3346.83841874105
670,shape670-V,2112,"AVENIDA AGUANAMBI, 94",10,-38.524315,-3.737729,3650.58229079756
670,shape670-V,2095,"AVENIDA AGUANAMBI, 90",11,-38.525615,-3.741117,4059.33779948801
670,shape670-V,2108,"AVENIDA AGUANAMBI, 899",12,-38.525651,-3.744545,4458.4634898143
670,shape670-V,2431,"AVENIDA AGUANAMBI, 1000",13,-38.525432,-3.745885,4608.56750422377
670,shape670-V,2460,"AVENIDA AGUANAMBI, 1370",14,-38.52431,-3.74834,4907.68251691859
670,shape670-V,2475,"AVENIDA AGUANAMBI, SN",15,-38.523544,-3.752105,5334.69962417873
670,shape670-V,6169,"AVENIDA AGUANAMBI, 1827",16,-38.523639,-3.75316,5452.3355006355
670,shape670-V,3311,"RODOVIA BR 116, 5239",17,-38.517756,-3.768189,7342.49548029869
670,shape670-V,4873,"RODOVIA BR 116, SN",18,-38.516766,-3.771828,7759.51389669041
670,shape670-V,3215,"RODOVIA BR 116, 6306 B",19,-38.515311,-3.77695,8348.43335397368
670,shape670-V,5083,"RODOVIA BR 116, 6685",20,-38.513903,-3.781432,8869.21808658315
670,shape670-V,3346,"RODOVIA BR 116, 6800",21,-38.512154,-3.785157,9324.47781133385
670,shape670-V,3363,"RODOVIA BR 116, SN",22,-38.511001,-3.787631,9626.4759582478
670,shape670-V,3362,"RODOVIA BR 116, SN",23,-38.509844,-3.790069,9925.03923426209
670,shape670-V,3542,"RODOVIA BR 116, 484",24,-38.508943,-3.791997,10160.4748997232
670,shape670-V,3543,"RODOVIA BR 116, SN",25,-38.50816,-3.793663,10364.1242289095
670,shape670-V,3540,"RODOVIA BR 116, SN",26,-38.507062,-3.796027,10652.4808541263
670,shape670-V,4629,"RODOVIA BR 116, SN",27,-38.505798,-3.798711,10980.7083003639
670,shape670-V,3528,"RODOVIA BR 116, 1990",28,-38.504044,-3.802504,11443.048930786
670,shape670-V,3548,"RODOVIA BR 116, 2350",29,-38.502685,-3.805496,11806.5869882067
670,shape670-V,4875,"RODOVIA BR 116, 2660",30,-38.501616,-3.807856,12093.2566605885
670,shape670-V,5061,"AVENIDA FRE CIRILO, 3333",31,-38.498935,-3.813875,12942.7860526973
670,shape670-V,3433,"AVENIDA FRE CIRILO, SN",32,-38.498253,-3.815467,13134.3805035813
670,shape670-V,3431,"AVENIDA FRE CIRILO, 3800",33,-38.497466,-3.817253,13350.2835723086
670,shape670-V,1485,"AVENIDA FRE CIRILO, SN",34,-38.496421,-3.819694,13643.9985547759
670,shape670-V,5365,"AVENIDA FRE CIRILO, 4454",35,-38.495199,-3.822465,13979.0424462604
670,shape670-V,1488,"AVENIDA FRE CIRILO, 4763",36,-38.494014,-3.825178,14306.5370279546
670,shape670-V,1201,"RUA PDE PEDRO DE ALENCAR, 144",37,-38.493621,-3.828818,14723.6611117711
670,shape670-V,1210,"RUA PDE PEDRO DE ALENCAR, 805",38,-38.494147,-3.835772,15495.3913681475
670,shape670-V,3765,"RUA PDE PEDRO DE ALENCAR, 1141",39,-38.49419,-3.837755,15714.6421154553
670,shape670-V,3763,"RUA PDE PEDRO DE ALENCAR, 1352",40,-38.494245,-3.839993,15962.1097392391
670,shape670-V,3769,"RUA PDE PEDRO DE ALENCAR, 1662",41,-38.494326,-3.842326,16220.1551038827
670,shape670-V,3818,"RUA PDE PEDRO DE ALENCAR, 2012",42,-38.494498,-3.845325,16552.287960663
670,shape670-V,3814,"RUA PDE PEDRO DE ALENCAR, 2230",43,-38.494743,-3.847828,16830.3411214245
670,shape670-V,4679,"RODOVIA BR 116, SN",44,-38.495611,-3.852716,17482.2793032902
670,shape670-V,3824,"RUA PEDRO DE SOUZA, 217",45,-38.497522,-3.852736,17730.9413276593
670,shape670-V,3825,"RUA PEDRO DE SOUZA, 1620",46,-38.501033,-3.852131,18126.466077187
670,shape670-V,3826,"RUA HONORINDO MAIA, 168",47,-38.501558,-3.850997,18315.7809464073
670,shape670-V,3827,"RUA AUGUSTA BENEVIDES, 1190",48,-38.502288,-3.849852,18544.1913555599
670,shape670-V,3808,"RUA DIONISIO LEONEL ALENCAR, 1591",49,-38.50389,-3.848917,18858.0955897169
670,shape670-V,5069,"RUA NUNES FEIJO, 1362",50,-38.505905,-3.846706,19320.8111596984
670,shape670-V,5071,"RUA NUNES FEIJO, 1596",51,-38.508719,-3.845599,19656.4111305211
670,shape670-V,5068,"RUA MORADA NOVA, SN",52,-38.511442,-3.845891,20062.6177724856
670,shape670-V,3803,"AVENIDA C CJ HAB ST SAO JOAO, 46",53,-38.512711,-3.84896,20430.0251224503
670,shape670-V,5589,"RUA 35 CJ HAB SÍTIO SÃO JOÃO, 1240",54,-38.517701,-3.847211,21041.7256550611
670,shape670-V,3800,"AVENIDA B CJ HAB ST SAO JOAO, 292",55,-38.518376,-3.848195,21200.1965576226
670,shape670-V,5587,"AVENIDA AV. B CJ SÍTIO SÃO JOÃO, 425",56,-38.518883,-3.849476,21352.5892508503
670,shape670-V,3802,"RUA 42 CJ HAB ST S JOAO, 474",57,-38.515975,-3.850069,22496.7351897392
670,shape670-V,6052,"RUA RAQUEL DE QUEIROZ CJ MARIA TOMASIA, SN",58,-38.519951,-3.855592,24332.725259708
