route_id,shape_id,stop_id,stop_name,stop_sequence,stop_lon,stop_lat,dist
456,shape456-I,5165,"AVENIDA NOVA FORTALEZA [72], 919",1,-38.574987,-3.839303,2.87499406547052e-09
456,shape456-I,4568,"RUA VINTE QUATRO DE MAIO, 185",2,-38.574103,-3.83756,248.549648398591
456,shape456-I,4565,"AVENIDA FRANCISCA MARIA DA CONCEICAO, 1481",3,-38.573133,-3.836238,483.205941223764
456,shape456-I,4564,"AVENIDA FRANCISCA MARIA DA CONCEICAO, 1175",4,-38.571779,-3.837338,676.566197285737
456,shape456-I,5163,"AVENIDA FRANCISCA MARIA DA CONCEICAO, 753",5,-38.569043,-3.839675,1075.58283376622
456,shape456-I,5164,"RUA RETIRO DA FELICIDADE, 155",6,-38.566268,-3.841453,1526.13859192169
456,shape456-I,4584,"AVENIDA FRANCISCA MARIA DA CONCEICAO, SN",7,-38.567729,-3.840729,1708.28179277529
456,shape456-I,3742,"AVENIDA FRANCISCA MARIA DA CONCEICAO, 780",8,-38.569142,-3.839597,1908.95694182359
456,shape456-I,3740,"RUA GASPAR DUTRA, 1841",9,-38.570003,-3.838373,2099.53017185552
456,shape456-I,3738,"RUA JURACI MAGALHAES, 550",10,-38.57071,-3.83713,2319.36171059161
456,shape456-I,5168,"RUA JOAQUIM CORREIA, 751",11,-38.571825,-3.834399,2778.51149395402
456,shape456-I,5169,"RUA APOCALIPSE, 830",12,-38.572676,-3.832932,3039.82110295289
456,shape456-I,5480,"RUA OSCAR ROMERO, 481",13,-38.571803,-3.8322,3322.59015722508
456,shape456-I,5479,"RUA OSCAR ROMERO, 221 A",14,-38.57072,-3.832653,3452.84596044601
456,shape456-I,5477,"RUA PLANALTINA, 1001",15,-38.569466,-3.832683,3633.29301310118
456,shape456-I,901,"RUA PARANAI, 1230",16,-38.568447,-3.832346,4022.13682031169
456,shape456-I,902,"RUA CEL QUEIROZ, 960",17,-38.568769,-3.833744,4214.16070060688
456,shape456-I,5172,"RUA CEL QUEIROZ, 574",18,-38.566994,-3.834383,4423.51760268132
456,shape456-I,921,"RUA ANTONIO BARBOSA, 1579",19,-38.565635,-3.833956,4645.72097270651
456,shape456-I,5173,"RUA ANTONIO BARBOSA, 1471",20,-38.56517,-3.832624,4801.75063717501
456,shape456-I,919,"RUA ANTONIO BARBOSA, 1401",21,-38.564723,-3.831402,4945.65707125079
456,shape456-I,5745,"RUA ANTONIO BARBOSA, 1081",22,-38.564245,-3.830057,5103.51961142311
456,shape456-I,5673,"RUA LEITAO CERQUEIRA, 419",23,-38.564509,-3.829149,5249.80240820017
456,shape456-I,680,"RUA MONTE LIBANO, SN",24,-38.563097,-3.826203,5705.31026865225
456,shape456-I,684,"RUA 5 CJ PEQ MONDUBIM, 29",25,-38.561071,-3.824115,6056.19410889052
456,shape456-I,676,"RUA 5 CJ PEQ MONDUBIM, 174",26,-38.559581,-3.824908,6243.42933930239
456,shape456-I,5744,"AVENIDA JOAO DE ARAUJO LIMA, SN",27,-38.558874,-3.82537,6476.26190324774
456,shape456-I,5179,"RUA BERNARDO MANOEL, 241",28,-38.558835,-3.824271,6597.89592015721
456,shape456-I,665,"AVENIDA BERNARDO MANOEL, 11",29,-38.55826,-3.821576,6903.38984902744
456,shape456-I,4595,"AVENIDA BERNARDO MANOEL, 11505",30,-38.557728,-3.819625,7127.07620897603
456,shape456-I,4594,"AVENIDA BERNARDO MANOEL, 11153",31,-38.557052,-3.817404,7383.79853284661
456,shape456-I,3202,"AVENIDA BERNARDO MANOEL, 10919",32,-38.556211,-3.814672,7699.89511229483
456,shape456-I,3199,"AVENIDA BERNARDO MANOEL, 10531",33,-38.55523,-3.811441,8073.28804518459
456,shape456-I,5130,"AVENIDA BERNARDO MANOEL, SN",34,-38.554381,-3.808694,8391.23255138079
456,shape456-I,3091,"AVENIDA BERNARDO MANOEL, 10151",35,-38.55389,-3.807068,8579.05375394063
456,shape456-I,3063,"AVENIDA BERNARDO MANOEL, 9959",36,-38.552886,-3.803672,8970.65361676478
456,shape456-I,3066,"AVENIDA DA BARAUNA, 9299",37,-38.552078,-3.800987,9280.71243705724
456,shape456-I,2574,"AVENIDA BERNARDO MANOEL, 8959",38,-38.55111,-3.797839,9644.91456549339
456,shape456-I,2571,"AVENIDA BERNARDO MANOEL, 8757",39,-38.550568,-3.796031,9853.64586926433
456,shape456-I,2585,"AVENIDA BERNARDO MANOEL, 3500",40,-38.549498,-3.792585,10252.6650787424
456,shape456-I,6198,"AVENIDA BERNARDO MANOEL, 8047",41,-38.548528,-3.78946,10614.5078998426
456,shape456-I,301,"AVENIDA DEDE BRASIL, 2919",42,-38.547596,-3.787686,11440.3471060493
456,shape456-I,294,"AVENIDA AV. DEDÉ BRASIL, 2670",43,-38.549795,-3.786526,11716.2252622335
456,shape456-I,292,"AVENIDA AV. DEDÉ BRASIL, 2333",44,-38.551155,-3.78581,11886.7224626878
456,shape456-I,4503,"AVENIDA AV. DEDÉ BRASIL, 357",45,-38.554072,-3.783599,12300.001462981
456,shape456-I,285,"AVENIDA DEDE BRASIL, 1151",46,-38.55597,-3.782017,12579.3272192193
456,shape456-I,1653,"AVENIDA DEDE BRASIL, 805",47,-38.55838,-3.780695,12884.2335142281
456,shape456-I,1654,"AVENIDA DEDE BRASIL, 565",48,-38.559999,-3.779819,13088.4484067222
456,shape456-I,6083,"PRAÇA TERMINAL PARANGABA, SN",49,-38.56358,-3.775878,13766.0430433543
