route_id,shape_id,stop_id,stop_name,stop_sequence,stop_lon,stop_lat,dist
075,shape075-I,6363,"RUA SÃO SEBASTIÃO, S/N",1,-38.56707,-3.725188,0
075,shape075-I,941,"RUA OLAVO BILAC, SN",2,-38.565482,-3.726114,261.17269908299
075,shape075-I,937,"AVENIDA SGT HERMINIO, SN",3,-38.567027,-3.72746,565.117865485281
075,shape075-I,5316,"AVENIDA GOV PARSIFAL BARROSO, 119",4,-38.569352,-3.728904,937.046198085408
075,shape075-I,4770,"AVENIDA GOV PARSIFAL BARROSO, 300",5,-38.569245,-3.730105,1070.35257663239
075,shape075-I,5550,"RUA EDGAR FALCAO, 130",6,-38.570854,-3.732271,1481.92730721991
075,shape075-I,5551,"RUA FREI ODILON, 1490",7,-38.572586,-3.732812,1716.93503077232
075,shape075-I,5552,"RUA FREI ODILON, 1700",8,-38.572266,-3.735679,2035.88137504735
075,shape075-I,5554,"AVENIDA ENG HUMBERTO MONTE, SN",9,-38.569158,-3.73876,2715.67281902999
075,shape075-I,2008,"RUA ENG HUMBERTO MONTE, 2495",10,-38.5677,-3.740709,2985.91466349742
075,shape075-I,2023,"AVENIDA JOVITA FEITOSA, 3143",11,-38.565853,-3.741821,3261.03928780317
075,shape075-I,2032,"AVENIDA JOVITA FEITOSA, 2881",12,-38.563662,-3.74137,3509.38843585923
075,shape075-I,2015,"AVENIDA JOVITA FEITOSA, 2700",13,-38.561375,-3.740888,3768.87622098502
075,shape075-I,2018,"AVENIDA JOVITA FEITOSA, 2423",14,-38.55893,-3.740389,4045.93449521636
075,shape075-I,2040,"AVENIDA JOVITA FEITOSA, 2165",15,-38.556852,-3.739973,4281.21826580548
075,shape075-I,2038,"AVENIDA JOVITA FEITOSA, 1216",16,-38.554791,-3.739557,4514.65182642397
075,shape075-I,2043,"AVENIDA JOVITA FEITOSA, 1089",17,-38.552908,-3.739184,4727.77763261128
075,shape075-I,2041,"AVENIDA JOVITA FEITOSA, 711",18,-38.550197,-3.738608,5035.47840797906
075,shape075-I,2045,"AVENIDA JOVITA FEITOSA, 447",19,-38.547879,-3.738115,5298.58768353201
075,shape075-I,2051,"AVENIDA JOVITA FEITOSA, 141",20,-38.54531,-3.737565,5590.27183119934
075,shape075-I,2055,"AVENIDA 13 DE MAIO, 2959",21,-38.54151,-3.738956,6082.03023477579
075,shape075-I,2078,"AVENIDA 13 DE MAIO, SN",22,-38.538839,-3.741238,6471.4715825057
075,shape075-I,2076,"AVENIDA 13 DE MAIO, SN",23,-38.537292,-3.742565,6697.36438254715
075,shape075-I,2075,"AVENIDA 13 DE MAIO, SN",24,-38.535791,-3.743859,6917.01611848934
075,shape075-I,2416,"AVENIDA 13 DE MAIO, 1654",25,-38.532805,-3.746415,7352.66154603602
075,shape075-I,2421,"AVENIDA 13 DE MAIO, 1220",26,-38.529747,-3.749016,7797.66084749027
075,shape075-I,2444,"AVENIDA 13 DE MAIO, 927",27,-38.527766,-3.750712,8086.69850440393
075,shape075-I,2449,"AVENIDA 13 DE MAIO, SN",28,-38.526081,-3.752146,8332.04446733211
075,shape075-I,2472,"AVENIDA 13 DE MAIO, 50",29,-38.521532,-3.753709,8902.90457707925
075,shape075-I,2479,"AVENIDA PONTES VIEIRA, 80",30,-38.518549,-3.753364,9236.35920870257
075,shape075-I,2485,"AVENIDA FIS VIEIRA, 488",31,-38.516052,-3.75306,9515.67112637441
075,shape075-I,2507,"AVENIDA PONTES VIEIRA, 832",32,-38.513372,-3.75275,9815.24951085508
075,shape075-I,2512,"AVENIDA PONTES VIEIRA, 1485",33,-38.508648,-3.752192,10343.4407999374
075,shape075-I,2514,"AVENIDA PONTES VIEIRA, 1599",34,-38.506602,-3.751956,10572.1322092296
075,shape075-I,2518,"AVENIDA PONTES VIEIRA, 1980",35,-38.504091,-3.751664,10852.8209928456
075,shape075-I,2544,"AVENIDA PONTES VIEIRA, 2855",36,-38.50161,-3.751369,11130.2456960695
075,shape075-I,2546,"AVENIDA PONTES VIEIRA, 2551",37,-38.498699,-3.751022,11455.760973086
075,shape075-I,5574,"AVENIDA SENADOR VIRGILIO TAVORA, 2577",38,-38.496975,-3.748883,11810.1563606658
075,shape075-I,2541,"AVENIDA ANTONIO SALES, 3266",39,-38.495009,-3.747749,12165.0157614437
075,shape075-I,2538,"AVENIDA ANTONIO SALES, 3510",40,-38.492703,-3.748435,12432.1127734916
075,shape075-I,6162,"AVENIDA ENG SANTANA JUNIOR, SN",41,-38.490789,-3.752242,13073.5849649596
075,shape075-I,6366,"AVENIDA WHASINGTON SOARES, S/N",42,-38.488666,-3.757697,13907.3282423238
075,shape075-I,3301,"AVENIDA WASHINGTON SOARES, SN",43,-38.48669,-3.758195,14133.5545210733
075,shape075-I,6208,"AVENIDA WASHIGTON SOARES, 700",44,-38.484502,-3.758727,14383.5329648026
075,shape075-I,3304,"AVENIDA WASHINGTON SOARES, 909",45,-38.482985,-3.762879,14906.3723195926
075,shape075-I,3329,"AVENIDA WASHINGTON SOARES, SN",46,-38.482435,-3.76856,15537.6110440812
075,shape075-I,4188,"AVENIDA WASHINGTON SOARES, SN",47,-38.482082,-3.773125,16043.8465096972
075,shape075-I,3333,"RUA DOR MAXIMIANO DA FONSECA, 1395",48,-38.482734,-3.771531,16811.9829930644
075,shape075-I,4189,"AVENIDA VALMIR PONTES, SN",49,-38.480744,-3.771399,17033.8928932235
075,shape075-I,4190,"AVENIDA VALMIR PONTES, SN",50,-38.479216,-3.771257,17204.3068615132
075,shape075-I,3249,"RUA DOR CARLOS R PAMPLONA, 433",51,-38.477846,-3.774106,17816.6023250557
