route_id,shape_id,stop_id,stop_name,stop_sequence,stop_lon,stop_lat,dist
076,shape076-V,6079,"PRAÇA TERMINAL PAPICU, SN",1,-38.484761,-3.738568,9.54870770954215
076,shape076-V,1838,"AVENIDA JULIO ABREU, 315",2,-38.487623,-3.735893,781.02515187431
076,shape076-V,1830,"AVENIDA DOM LUIS, 1200",3,-38.490029,-3.735624,1052.72210258354
076,shape076-V,5143,"AVENIDA SEN VIRGILIO TAVORA, 850",4,-38.492202,-3.733954,1441.59793411622
076,shape076-V,5144,"AVENIDA SEN VIRGILIO TAVORA, 200",5,-38.491145,-3.730663,1823.84887061663
076,shape076-V,1813,"AVENIDA ANTONIO JUSTA, 3293",6,-38.491673,-3.728562,2895.9702216886
076,shape076-V,1797,"RUA ANA BILHAR, 770",7,-38.493588,-3.73014,3275.26616274554
076,shape076-V,1798,"RUA ANA BILHAR, 491",8,-38.495807,-3.729426,3534.01214248107
076,shape076-V,1789,"AVENIDA DESEMBARGADOR MOREIRA, 333",9,-38.496353,-3.729852,3639.92726162851
076,shape076-V,1791,"AVENIDA DESEMBARGADOR MOREIRA, 700",10,-38.496986,-3.731818,3868.33809940296
076,shape076-V,1804,"AVENIDA DOM LUIS, 230",11,-38.499696,-3.732502,4264.9560252871
076,shape076-V,1788,"RUA TEN BENEVOLO, 217",12,-38.502073,-3.730287,4745.33050147653
076,shape076-V,1778,"AVENIDA BAR STUDART, 789",13,-38.505613,-3.731387,5316.3951148331
076,shape076-V,1786,"AVENIDA BAR STUDART, 1148",14,-38.506894,-3.735416,5783.91965135365
076,shape076-V,2129,"AVENIDA BAR STUDART, 1486",15,-38.50753,-3.737372,6011.37544500504
076,shape076-V,2130,"AVENIDA BAR STUDART, 1864",16,-38.508267,-3.739634,6274.46665402054
076,shape076-V,3882,"RUA PDE VALDEVINO, 1687",17,-38.509549,-3.741424,6582.03408200121
076,shape076-V,2119,"RUA PADRE VALDEVINO, 1071",18,-38.514523,-3.739859,7160.85100165784
076,shape076-V,6328,"RUA PADRE VALDEVINO, 681",19,-38.51798,-3.738764,7563.362078126
076,shape076-V,2113,"RUA PDE VALDEVINO, SN",20,-38.522479,-3.737348,8086.89407103745
076,shape076-V,5567,"AVENIDA DOMINGOS OLIMPIO, 123",21,-38.52512,-3.738401,8522.68508189366
076,shape076-V,5033,"RUA DOMINGOS OLIMPIO, 591",22,-38.529105,-3.737228,8984.32153394914
076,shape076-V,1716,"RUA DOMINGOS OLIMPIO, 1250",23,-38.534588,-3.735376,9627.38292133547
076,shape076-V,6262,"AVENIDA DOMINGOS OLIMPIO, 2032",24,-38.541385,-3.733106,10424.5282164234
076,shape076-V,6264,"ESTAÇÃO JOSÉ SOMBRA, 207",25,-38.546775,-3.731971,11195.7459899245
076,shape076-V,6266,"ESTAÇÃO INSTITUTO DOS CEGOS, 887",26,-38.552973,-3.733243,11900.44245893
076,shape076-V,6269,"ESTAÇÃO DOM LINO, 1351",27,-38.556989,-3.734092,12358.2585904804
076,shape076-V,6271,"ESTAÇÃO ERICO MOTA, 1820",28,-38.562425,-3.735207,12977.1114625778
076,shape076-V,6273,"ESTAÇÃO NORTH SHOPPING, 2407",29,-38.5663,-3.736013,13417.5957170518
076,shape076-V,2003,"AVENIDA MISTER HULL, SN",30,-38.571699,-3.73681,14024.141393025
076,shape076-V,1997,"AVENIDA MISTER HULL, 3210",31,-38.574095,-3.737085,14291.9395941299
076,shape076-V,1993,"AVENIDA MISTER HULL, SN",32,-38.57721,-3.737501,14640.8860804953
076,shape076-V,1980,"AVENIDA MISTER HULL, 10",33,-38.580987,-3.738015,15064.1349142822
076,shape076-V,1978,"AVENIDA MISTER HULL, 4465",34,-38.583002,-3.738306,15290.1857551726
076,shape076-V,1973,"AVENIDA MISTER HULL, 4856",35,-38.587892,-3.739,15838.5801654399
076,shape076-V,1908,"AVENIDA MISTER HULL, 5168",36,-38.590584,-3.739399,16140.7423285513
076,shape076-V,1900,"AVENIDA MISTER HULL, 565",37,-38.594915,-3.740043,16626.9065897418
076,shape076-V,1899,"AVENIDA MISTER HULL, 104",38,-38.596684,-3.740309,16825.5279524405
076,shape076-V,1898,"RUA HIPOLITO PAMPLONA, 16 A",39,-38.596965,-3.739517,16934.3133758799
076,shape076-V,1901,"RUA PDE PERDIGAO SAMPAIO, 330",40,-38.594756,-3.739244,17295.0633720736
076,shape076-V,5022,"RUA PDE PERDIGAO SAMPAIO, 492",41,-38.594551,-3.740666,17453.8931835276
076,shape076-V,1918,"RUA PDE PERDIGAO SAMPAIO, 652",42,-38.594235,-3.742909,17704.3108370382
076,shape076-V,1914,"RUA CEL JOAQUIM FRANKLIN, 911",43,-38.595183,-3.743535,17872.6296360305
076,shape076-V,4260,"RUA HIPOLITO PAMPLONA, 328",44,-38.596238,-3.744215,18057.6212915456
076,shape076-V,4890,"RUA HIPOLITO PAMPLONA, 620",45,-38.59604,-3.745581,18210.2095425804
076,shape076-V,4647,"RUA HIPOLITO PAMPLONA, 739",46,-38.59582,-3.747207,18391.6056563022
076,shape076-V,5199,"RUA AZEVEDO BARRETO, 999",47,-38.595408,-3.749242,18636.3765107412
076,shape076-V,5201,"RUA CAR ARCO VERDE, 112",48,-38.593004,-3.751271,19084.6157093659
076,shape076-V,5204,"RUA CAR ARCO VERDE, 308",49,-38.593289,-3.752882,19265.5025278077
076,shape076-V,5206,"RUA CAR ARCO VERDE, 690",50,-38.59376,-3.755247,19532.1429063062
076,shape076-V,2690,"AVENIDA SEN FERNANDES TAVORA, 2470",51,-38.595667,-3.755608,19812.5749699276
076,shape076-V,2686,"AVENIDA SEN FERNANDES TAVORA, 2824",52,-38.597272,-3.755312,19993.7777633881
076,shape076-V,1306,"RUA JOSE MENDONCA, 896",53,-38.601837,-3.755235,20576.94952153
076,shape076-V,1307,"RUA JOSE MENDONCA, 524 A",54,-38.602304,-3.757768,20861.702336687
076,shape076-V,1324,"RUA JOSE MENDONCA, 126",55,-38.602973,-3.761318,21261.0786369066
076,shape076-V,4545,"AVENIDA D CJ CEARA, 1264",56,-38.602425,-3.763367,21501.5924256593
076,shape076-V,1358,"AVENIDA B CJ CEARA, 370",57,-38.605055,-3.764878,21898.8496260936
076,shape076-V,1356,"AVENIDA B CJ CEARA, 550",58,-38.606178,-3.766652,22131.235828852
076,shape076-V,1355,"AVENIDA B CJ CEARA, 760",59,-38.607247,-3.768334,22351.8207982258
076,shape076-V,1365,"AVENIDA 151 CJ CEARA, 126",60,-38.606561,-3.769675,22552.46820517
076,shape076-V,5819,"PRAÇA TERMINAL CONJUNTO CEARÁ, SN",61,-38.607545,-3.772986,23033.8429353775
