route_id,shape_id,stop_id,stop_name,stop_sequence,stop_lon,stop_lat,dist
712,shape712-I,6215,"RUA 5 CJ HAB ST SAO JOAO, 46",1,-38.516665,-3.847011,3.93305786345334e-09
712,shape712-I,5589,"RUA 35 CJ HAB SÍTIO SÃO JOÃO, 1240",2,-38.517701,-3.847211,299.868587961724
712,shape712-I,3800,"AVENIDA B CJ HAB ST SAO JOAO, 292",3,-38.518376,-3.848195,458.339490523214
712,shape712-I,3802,"RUA 42 CJ HAB ST S JOAO, 474",4,-38.515975,-3.850069,927.011342706184
712,shape712-I,3804,"AVENIDA C CJ HAB ST SAO JOAO, 87",5,-38.512904,-3.849468,1405.87056488024
712,shape712-I,6178,"AVENIDA VAL PARAÍSO, SN",6,-38.51369,-3.84812,1645.2629175931
712,shape712-I,6192,"AVENIDA VALPARAISO, S/N",7,-38.517128,-3.846626,2061.59282978789
712,shape712-I,3796,"AVENIDA CASTELO DE CASTRO, 264",8,-38.522035,-3.846606,2647.98836032671
712,shape712-I,6240,"RUA SILVINHA TELES, 60",9,-38.524168,-3.850469,3301.57848631714
712,shape712-I,1071,"RUA SILVINHA TELES D-69, 449",10,-38.526463,-3.848541,3633.76552034361
712,shape712-I,1069,"RUA IRACEMA, 930",11,-38.528994,-3.845492,4144.04856902354
712,shape712-I,6286,"AVENIDA IRACEMA, 505",12,-38.527139,-3.843321,4460.30135835679
712,shape712-I,3753,"RUA MODESTA, 120",13,-38.521822,-3.844627,5376.29672785684
712,shape712-I,3754,"AVENIDA CASTELO DE CASTRO, 1598",14,-38.521577,-3.842838,5585.11878707514
712,shape712-I,3756,"AVENIDA CASTELO DE CASTRO, SN",15,-38.52167,-3.841615,5720.71943346996
712,shape712-I,5220,"AVENIDA CASTELO DE CASTRO, 1015",16,-38.521643,-3.838338,6083.15787498029
712,shape712-I,3748,"AVENIDA CASTELO DE CASTRO, 837",17,-38.521617,-3.837368,6190.41947538422
712,shape712-I,3690,"AVENIDA CASTELO DE CASTRO, 674",18,-38.521578,-3.835317,6417.19078465336
712,shape712-I,3692,"AVENIDA CASTELO DE CASTRO, 479",19,-38.521507,-3.833289,6641.52248016918
712,shape712-I,3693,"AVENIDA CASTELO DE CASTRO, 342",20,-38.521468,-3.832132,6769.49481873346
712,shape712-I,3682,"AVENIDA CASTELO DE CASTRO, 154",21,-38.521393,-3.830054,6999.34771979571
712,shape712-I,3687,"AVENIDA PRS COSTA E SILVA, 2812",22,-38.518894,-3.828394,7398.56627432022
712,shape712-I,3688,"AVENIDA COSTA E SILVA, 2540",23,-38.514695,-3.828076,7866.50895447612
712,shape712-I,3703,"AVENIDA PRS COSTA E SILVA, 1861",24,-38.511664,-3.829218,8226.29635256067
712,shape712-I,3710,"AVENIDA PRS COSTA E SILVA, SN",25,-38.509426,-3.829934,8487.34877079875
712,shape712-I,1198,"AVENIDA JORNALISTA TOMAZ COELHO, 399",26,-38.498446,-3.832406,9745.26671453002
712,shape712-I,1204,"RUA EDUARDO PORTO, 151",27,-38.494626,-3.83272,10171.0289656418
712,shape712-I,4506,"RUA FRANCISCO PEREIRA, 368",28,-38.492974,-3.832109,10428.7268966222
712,shape712-I,1127,"RUA PERGENTINO MAIA, 229",29,-38.492044,-3.830969,10652.2231892394
712,shape712-I,1128,"RUA PERGENTINO MAIA, SN",30,-38.489536,-3.831314,10933.2931261351
712,shape712-I,1129,"AVENIDA CEL DIONISIO ALENCAR, 264",31,-38.487595,-3.831276,11171.793241219
712,shape712-I,1130,"AVENIDA CEL DIONISIO ALENCAR, 139",32,-38.486846,-3.829334,11402.0248447194
712,shape712-I,1132,"RUA DOR JOAQUIM BENTO, 636",33,-38.485826,-3.828294,11595.0630796083
712,shape712-I,749,"AVENIDA ODILON GUIMARAES, SN",34,-38.480203,-3.82655,12291.7725584146
712,shape712-I,747,"RUA FRANCISCO LEANDRO, 399",35,-38.480009,-3.823452,12757.7272195271
712,shape712-I,742,"AVENIDA WASHINGTON SOARES, 8107",36,-38.481191,-3.822017,12980.8051244784
712,shape712-I,3444,"AVENIDA WASHINGTON SOARES, 6984",37,-38.483014,-3.817548,13543.9031560415
712,shape712-I,3448,"AVENIDA WASHINGTON SOARES, 6307",38,-38.481073,-3.814741,13925.4796145492
712,shape712-I,3445,"AVENIDA WASHINGTON SOARES, 5760",39,-38.478614,-3.810379,14495.4300935013
712,shape712-I,3168,"AVENIDA WASHINGTON SOARES, 5295",40,-38.479051,-3.805469,15040.4777501621
712,shape712-I,3167,"AVENIDA WASHINGTON SOARES, 4835",41,-38.479313,-3.802419,15378.8921198296
712,shape712-I,1112,"AVENIDA WASHINGTON SOARES, SN",42,-38.479559,-3.799236,15731.8261141985
712,shape712-I,1101,"AVENIDA WASHINGTON SOARES, SN",43,-38.479888,-3.795361,16162.1209028974
712,shape712-I,1100,"AVENIDA WASHINGTON SOARES, SN",44,-38.480304,-3.791062,16639.9016061607
712,shape712-I,1080,"AVENIDA WASHINGTON SOARES, 3340",45,-38.480602,-3.787602,17023.7995817069
712,shape712-I,1084,"AVENIDA WASHINGTON SOARES, SN",46,-38.481016,-3.782528,17586.5765115179
712,shape712-I,3243,"AVENIDA WASHINGTON SOARES, SN",47,-38.481506,-3.776288,18278.5564611217
712,shape712-I,3331,"AVENIDA WASHINGTON SOARES, SN",48,-38.481648,-3.773444,18593.6050675752
712,shape712-I,3330,"AVENIDA WASHINGTON SOARES, SN",49,-38.481903,-3.770655,18903.2214093656
712,shape712-I,3303,"AVENIDA WASHINGTON SOARES, SN",50,-38.482607,-3.763698,19676.3275445942
712,shape712-I,3302,"AVENIDA WASHINGTON SOARES, 689",51,-38.485048,-3.758526,20386.7434943946
712,shape712-I,5598,"AVENIDA WASHINGTON SOARES, 85",52,-38.489337,-3.757442,20877.8504797399
712,shape712-I,2550,"AVENIDA ENG SANTANA JUNIOR, SN",53,-38.490863,-3.753264,21485.6784025334
712,shape712-I,5142,"AVENIDA ENG SANTANA JUNIOR, 1901",54,-38.486138,-3.742174,22863.4830993906
712,shape712-I,1839,"AVENIDA ENG SANTANA JUNIOR, 970",55,-38.482669,-3.736718,23579.1450672625
712,shape712-I,1866,"AVENIDA ENG SANTANA JUNIOR, 639",56,-38.480766,-3.733755,23968.9859386923
712,shape712-I,1868,"AVENIDA ENG ALBERTO SA, 175",57,-38.479361,-3.733537,24149.6532572091
712,shape712-I,1870,"AVENIDA ENG ALBERTO SA, 480",58,-38.476433,-3.734393,24488.2854720309
712,shape712-I,1873,"AVENIDA ENG ALBERTO SA, 1280",59,-38.47157,-3.735783,25049.7513484772
712,shape712-I,5388,"RUA AMELIA BENEBIEN, 420",60,-38.472839,-3.737172,25314.6830485272
712,shape712-I,2210,"RUA LAURO NOGUEIRA, 1165",61,-38.476181,-3.740765,26029.765098008
712,shape712-I,6179,"RUA RIACHUELO, 89",62,-38.474312,-3.73988,25663.634062387
