route_id,shape_id,stop_id,stop_name,stop_sequence,stop_lon,stop_lat,dist
323,shape323-I,3663,"RUA BOA VISTA, 323",1,-38.583861,-3.770211,0
323,shape323-I,3664,"RUA BRI TORRES, 1436",2,-38.582475,-3.770546,192.095663270391
323,shape323-I,4476,"RUA ARARIPE MACEDO, 669",3,-38.580227,-3.770945,476.183784266141
323,shape323-I,4511,"RUA ARARIPE MACEDO, 475",4,-38.578402,-3.771894,704.372406786802
323,shape323-I,4510,"RUA MELO DE OLIVEIRA, 927",5,-38.578902,-3.773831,969.76573869075
323,shape323-I,1614,"RUA PERDIGAO DE OLIVEIRA, 780",6,-38.576157,-3.774895,1365.52072609693
323,shape323-I,1618,"AVENIDA AUGUSTO DOS ANJOS, 698",7,-38.574062,-3.774418,1635.08508499356
323,shape323-I,5232,"AVENIDA AUGUSTO DOS ANJOS, 408",8,-38.572219,-3.77244,1934.58891930065
323,shape323-I,6339,"PRAÃ‡A TERMINAL LAGOA, SN",9,-38.569883,-3.77181,2388.22057893899
